{
"type": "FeatureCollection",
"name": "merged_poi",
"crs": { "type": "name", "properties": { "name": "urn:ogc:def:crs:OGC:1.3:CRS84" } },
"features": [
{ "type": "Feature", "properties": { "name": "Bloomington Center for the Performing Arts", "address": "600 N East St", "city": "City of Bloomington", "Category__": "Performing Arts", "desc": null, "PicURL": "https:\/\/mcplan.org\/image\/990", "LINK": null, "Place": null, "Category": null, "Municipali": null, "Public_Art": null }, "geometry": { "type": "Point", "coordinates": [ -88.992807, 40.4841211 ] } },
{ "type": "Feature", "properties": { "name": "Castle Theatre", "address": "209 E Washington St", "city": "City of Bloomington", "Category__": "Performing Arts", "desc": "#1", "PicURL": "https:\/\/mcplan.org\/image\/992", "LINK": null, "Place": null, "Category": null, "Municipali": null, "Public_Art": null }, "geometry": { "type": "Point", "coordinates": [ -88.991732, 40.4793437 ] } },
{ "type": "Feature", "properties": { "name": "Community Players Theatre", "address": "201 Robinhood Ln", "city": "Town of Normal", "Category__": "Performing Arts", "desc": null, "PicURL": null, "LINK": null, "Place": null, "Category": null, "Municipali": null, "Public_Art": null }, "geometry": { "type": "Point", "coordinates": [ -88.9659472, 40.4905169 ] } },
{ "type": "Feature", "properties": { "name": "Corn Crib", "address": "1000 W Raab Rd", "city": "Town of Normal", "Category__": "Recreation", "desc": null, "PicURL": null, "LINK": null, "Place": null, "Category": null, "Municipali": null, "Public_Art": null }, "geometry": null },
{ "type": "Feature", "properties": { "name": "Creativity Center", "address": "107 E Chestnut St", "city": "City of Bloomington", "Category__": "Performing Arts", "desc": null, "PicURL": null, "LINK": null, "Place": null, "Category": null, "Municipali": null, "Public_Art": null }, "geometry": { "type": "Point", "coordinates": [ -88.9928604, 40.4854303 ] } },
{ "type": "Feature", "properties": { "name": "Evergreen Memorial Cemetery", "address": "302 E Miller St", "city": "City of Bloomington", "Category__": "Historical", "desc": "Note: Illinois Voices Theatre historical theatre reenactments", "PicURL": null, "LINK": null, "Place": null, "Category": null, "Municipali": null, "Public_Art": null }, "geometry": { "type": "Point", "coordinates": [ -88.9900007, 40.4671657 ] } },
{ "type": "Feature", "properties": { "name": "Ewing Manor", "address": "S Towanda Ave", "city": "City of Bloomington", "Category__": "Historical", "desc": "S Towanda Ave", "PicURL": null, "LINK": null, "Place": null, "Category": null, "Municipali": null, "Public_Art": null }, "geometry": null },
{ "type": "Feature", "properties": { "name": "First Christian Church", "address": "401 W Jefferson St", "city": "City of Bloomington", "Category__": "Historical", "desc": null, "PicURL": null, "LINK": null, "Place": null, "Category": null, "Municipali": null, "Public_Art": null }, "geometry": { "type": "Point", "coordinates": [ -88.9970301, 40.4807062 ] } },
{ "type": "Feature", "properties": { "name": "Franklin Park", "address": "300-398 E Chestnut St", "city": "City of Bloomington", "Category__": "Recreation", "desc": "park", "PicURL": null, "LINK": null, "Place": null, "Category": null, "Municipali": null, "Public_Art": null }, "geometry": null },
{ "type": "Feature", "properties": { "name": "Heartland Theatre", "address": "1110 Douglas St", "city": "Town of Normal", "Category__": "Performing Arts", "desc": null, "PicURL": null, "LINK": null, "Place": null, "Category": null, "Municipali": null, "Public_Art": null }, "geometry": null },
{ "type": "Feature", "properties": { "name": "Illinois Theatre Consortium - Seedling Theatre", "address": "410 W Jefferson St", "city": "City of Bloomington", "Category__": "Performing Arts", "desc": "First Christian Church", "PicURL": null, "LINK": null, "Place": null, "Category": null, "Municipali": null, "Public_Art": null }, "geometry": null },
{ "type": "Feature", "properties": { "name": "ISU - Braden Auditorium", "address": "N University", "city": "Town of Normal", "Category__": "Performing Arts", "desc": "100 N University is just the central ISU address; individual buildings don't have addresses", "PicURL": null, "LINK": null, "Place": null, "Category": null, "Municipali": null, "Public_Art": null }, "geometry": null },
{ "type": "Feature", "properties": { "name": "ISU - Center for the Performing Arts", "address": "N University", "city": "Town of Normal", "Category__": "Performing Arts", "desc": "100 N University is just the central ISU address; individual buildings don't have addresses", "PicURL": null, "LINK": null, "Place": null, "Category": null, "Municipali": null, "Public_Art": null }, "geometry": null },
{ "type": "Feature", "properties": { "name": "IWU - McPherson Theatre", "address": "2 Ames Pl W", "city": "City of Bloomington", "Category__": "Performing Arts", "desc": "McPherson Theatre Box Office", "PicURL": null, "LINK": null, "Place": null, "Category": null, "Municipali": null, "Public_Art": null }, "geometry": { "type": "Point", "coordinates": [ -88.9912036, 40.4895256 ] } },
{ "type": "Feature", "properties": { "name": "IWU - Westbrook Auditorium", "address": "1210 N Park St", "city": "City of Bloomington", "Category__": "Performing Arts", "desc": "Inside Presser Hall", "PicURL": null, "LINK": null, "Place": null, "Category": null, "Municipali": null, "Public_Art": null }, "geometry": { "type": "Point", "coordinates": [ -88.9905711, 40.4896959 ] } },
{ "type": "Feature", "properties": { "name": "Lincoln Leisure Center", "address": "1206 S Lee St", "city": "City of Bloomington", "Category__": "Recreation", "desc": "park", "PicURL": null, "LINK": null, "Place": null, "Category": null, "Municipali": null, "Public_Art": null }, "geometry": null },
{ "type": "Feature", "properties": { "name": "McLean County Dance Association", "address": "1316 E Empire St", "city": "City of Bloomington", "Category__": "Performing Arts", "desc": null, "PicURL": null, "LINK": null, "Place": null, "Category": null, "Municipali": null, "Public_Art": null }, "geometry": { "type": "Point", "coordinates": [ -88.9642771, 40.4888238 ] } },
{ "type": "Feature", "properties": { "name": "Miller Park", "address": "1020 S Morris Ave", "city": "City of Bloomington", "Category__": "Recreation", "desc": "park", "PicURL": null, "LINK": null, "Place": null, "Category": null, "Municipali": null, "Public_Art": null }, "geometry": null },
{ "type": "Feature", "properties": { "name": "North Prairie Street Historic Synagogue", "address": "315 N Prairie St", "city": "City of Bloomington", "Category__": "Historic", "desc": null, "PicURL": null, "LINK": null, "Place": null, "Category": null, "Municipali": null, "Public_Art": null }, "geometry": { "type": "Point", "coordinates": [ -88.9907321, 40.4811821 ] } },
{ "type": "Feature", "properties": { "name": "Second Presbyterian Church", "address": "313 N East St", "city": "City of Bloomington", "Category__": "Historic", "desc": null, "PicURL": null, "LINK": null, "Place": null, "Category": null, "Municipali": null, "Public_Art": null }, "geometry": { "type": "Point", "coordinates": [ -88.9920974, 40.4813831 ] } },
{ "type": "Feature", "properties": { "name": "Twin Cities Ballet & School of Dance", "address": "1301 Morrissey Dr", "city": "City of Bloomington", "Category__": "Performing Arts", "desc": "#1", "PicURL": null, "LINK": null, "Place": null, "Category": null, "Municipali": null, "Public_Art": null }, "geometry": { "type": "Point", "coordinates": [ -88.9736723, 40.4631357 ] } },
{ "type": "Feature", "properties": { "name": "Grossinger Motor Sports Coliseum", "address": "101 S Madison St", "city": "City of Bloomington", "Category__": "Sports", "desc": null, "PicURL": "https:\/\/mcplan.org\/image\/994", "LINK": null, "Place": null, "Category": null, "Municipali": null, "Public_Art": null }, "geometry": { "type": "Point", "coordinates": [ -88.9963199, 40.4781086 ] } },
{ "type": "Feature", "properties": { "name": "USA Ballet Company", "address": "105 W Jefferson St", "city": "City of Bloomington", "Category__": "Performing Arts", "desc": null, "PicURL": null, "LINK": null, "Place": null, "Category": null, "Municipali": null, "Public_Art": null }, "geometry": { "type": "Point", "coordinates": [ -88.9940623, 40.4806795 ] } },
{ "type": "Feature", "properties": { "name": "Withers Park", "address": "E Washington St", "city": "City of Bloomington", "Category__": "Recreation", "desc": "park", "PicURL": "https:\/\/mcplan.org\/image\/1021", "LINK": null, "Place": null, "Category": null, "Municipali": null, "Public_Art": null }, "geometry": null },
{ "type": "Feature", "properties": { "name": "Wrainbow Ballroom & Dance Studio", "address": "101 E Mulberry St", "city": "City of Bloomington", "Category__": "Performing Arts", "desc": null, "PicURL": null, "LINK": null, "Place": null, "Category": null, "Municipali": null, "Public_Art": null }, "geometry": null },
{ "type": "Feature", "properties": { "name": "Behind the Glass Fine Art Gallery and Studio", "address": "309 N Main St", "city": "City of Bloomington", "Category__": "Gallery", "desc": null, "PicURL": null, "LINK": null, "Place": null, "Category": null, "Municipali": null, "Public_Art": null }, "geometry": { "type": "Point", "coordinates": [ -88.993511, 40.480817 ] } },
{ "type": "Feature", "properties": { "name": "Bulga Press Studio (Rhea Edge)", "address": "313 Main St", "city": "City of Bloomington", "Category__": "Gallery", "desc": null, "PicURL": null, "LINK": null, "Place": null, "Category": null, "Municipali": null, "Public_Art": null }, "geometry": { "type": "Point", "coordinates": [ -88.9938583, 40.4765838 ] } },
{ "type": "Feature", "properties": { "name": "Dreams 2 Create Studio and Gallery", "address": "903 S Allin St", "city": "City of Bloomington", "Category__": "Gallery", "desc": null, "PicURL": null, "LINK": null, "Place": null, "Category": null, "Municipali": null, "Public_Art": null }, "geometry": { "type": "Point", "coordinates": [ -89.002132, 40.4717354 ] } },
{ "type": "Feature", "properties": { "name": "Eaton Gallery (Herb Eaton)", "address": "411 N Center St", "city": "City of Bloomington", "Category__": "Gallery", "desc": null, "PicURL": "https:\/\/mcplan.org\/image\/999", "LINK": null, "Place": null, "Category": null, "Municipali": null, "Public_Art": null }, "geometry": { "type": "Point", "coordinates": [ -88.9944193, 40.4817551 ] } },
{ "type": "Feature", "properties": { "name": "Gregor Gallery", "address": "311 N Main St", "city": "City of Bloomington", "Category__": "Gallery", "desc": null, "PicURL": null, "LINK": null, "Place": null, "Category": null, "Municipali": null, "Public_Art": null }, "geometry": { "type": "Point", "coordinates": [ -88.9933652, 40.4808865 ] } },
{ "type": "Feature", "properties": { "name": "Grey Dove Gallery", "address": "105A W Monroe St", "city": "City of Bloomington", "Category__": "Gallery", "desc": null, "PicURL": null, "LINK": null, "Place": null, "Category": null, "Municipali": null, "Public_Art": null }, "geometry": { "type": "Point", "coordinates": [ -88.9940543, 40.4813758 ] } },
{ "type": "Feature", "properties": { "name": "Inside Out Accessible Art Cooperative Gallery", "address": "318 N Main St", "city": "City of Bloomington", "Category__": "Gallery", "desc": null, "PicURL": null, "LINK": null, "Place": null, "Category": null, "Municipali": null, "Public_Art": null }, "geometry": { "type": "Point", "coordinates": [ -88.9940015, 40.4810809 ] } },
{ "type": "Feature", "properties": { "name": "Jan Brandt Gallery and Studio", "address": "1106 E Bell St", "city": "City of Bloomington", "Category__": "Gallery", "desc": null, "PicURL": null, "LINK": null, "Place": null, "Category": null, "Municipali": null, "Public_Art": null }, "geometry": { "type": "Point", "coordinates": [ -88.9788169, 40.4726083 ] } },
{ "type": "Feature", "properties": { "name": "Main Gallery 404", "address": "404 N Main St", "city": "City of Bloomington", "Category__": "Gallery", "desc": null, "PicURL": null, "LINK": null, "Place": null, "Category": null, "Municipali": null, "Public_Art": null }, "geometry": { "type": "Point", "coordinates": [ -88.9940052, 40.4814493 ] } },
{ "type": "Feature", "properties": { "name": "Manneken Press", "address": "1106 E Bell St", "city": "City of Bloomington", "Category__": "Gallery", "desc": null, "PicURL": null, "LINK": null, "Place": null, "Category": null, "Municipali": null, "Public_Art": null }, "geometry": { "type": "Point", "coordinates": [ -88.9788169, 40.4726083 ] } },
{ "type": "Feature", "properties": { "name": "Mary Lynn's Yarn Garden", "address": "318 N Main St", "city": "City of Bloomington", "Category__": "Gallery", "desc": null, "PicURL": null, "LINK": null, "Place": null, "Category": null, "Municipali": null, "Public_Art": null }, "geometry": { "type": "Point", "coordinates": [ -88.9940015, 40.4810809 ] } },
{ "type": "Feature", "properties": { "name": "Mclean County Art Center", "address": "601 N East St", "city": "City of Bloomington", "Category__": "Gallery", "desc": null, "PicURL": "https:\/\/mcplan.org\/image\/1014", "LINK": null, "Place": null, "Category": null, "Municipali": null, "Public_Art": null }, "geometry": { "type": "Point", "coordinates": [ -88.9921647, 40.4838462 ] } },
{ "type": "Feature", "properties": { "name": "Merlot and a Masterpiece", "address": "412 N Main St", "city": "City of Bloomington", "Category__": "Gallery", "desc": null, "PicURL": null, "LINK": null, "Place": null, "Category": null, "Municipali": null, "Public_Art": null }, "geometry": { "type": "Point", "coordinates": [ -88.9940235, 40.4816628 ] } },
{ "type": "Feature", "properties": { "name": "Merwin & Wakeley Galleries", "address": "6 Ames Plaza W", "city": "City of Bloomington", "Category__": "Gallery", "desc": null, "PicURL": null, "LINK": null, "Place": null, "Category": null, "Municipali": null, "Public_Art": null }, "geometry": { "type": "Point", "coordinates": [ -88.9918268, 40.4894817 ] } },
{ "type": "Feature", "properties": { "name": "Timothy Kent Gallery & Framing", "address": "214 W Jefferson St", "city": "City of Bloomington", "Category__": "Gallery", "desc": null, "PicURL": null, "LINK": null, "Place": null, "Category": null, "Municipali": null, "Public_Art": null }, "geometry": { "type": "Point", "coordinates": [ -88.9951843, 40.4802064 ] } },
{ "type": "Feature", "properties": { "name": "University Galleries", "address": "400 W Beaufort St", "city": "Town of Normal", "Category__": "Gallery", "desc": null, "PicURL": null, "LINK": null, "Place": null, "Category": null, "Municipali": null, "Public_Art": null }, "geometry": null },
{ "type": "Feature", "properties": { "name": "Angel Ambrose Fine Art Studio", "address": "101 W Monroe St", "city": "City of Bloomington", "Category__": "Studio", "desc": null, "PicURL": null, "LINK": null, "Place": null, "Category": null, "Municipali": null, "Public_Art": null }, "geometry": { "type": "Point", "coordinates": [ -89.0049594, 40.4812151 ] } },
{ "type": "Feature", "properties": { "name": "Brian K Simpson", "address": "115 S Center St", "city": "City of Bloomington", "Category__": "Studio", "desc": null, "PicURL": null, "LINK": null, "Place": null, "Category": null, "Municipali": null, "Public_Art": null }, "geometry": { "type": "Point", "coordinates": [ -88.9943221, 40.4679738 ] } },
{ "type": "Feature", "properties": { "name": "Cometogetherstudio", "address": "212 N Roosevelt Ave", "city": "City of Bloomington", "Category__": "Studio", "desc": null, "PicURL": null, "LINK": null, "Place": null, "Category": null, "Municipali": null, "Public_Art": null }, "geometry": { "type": "Point", "coordinates": [ -88.9968401, 40.4800859 ] } },
{ "type": "Feature", "properties": { "name": "Darin Dawdy", "address": "101 W Monroe St", "city": "City of Bloomington", "Category__": "Studio", "desc": null, "PicURL": null, "LINK": null, "Place": null, "Category": null, "Municipali": null, "Public_Art": null }, "geometry": { "type": "Point", "coordinates": [ -89.0049594, 40.4812151 ] } },
{ "type": "Feature", "properties": { "name": "Darin Dawdy and Aaron Shane", "address": "212 N Roosevelt Ave", "city": "City of Bloomington", "Category__": "Studio", "desc": null, "PicURL": null, "LINK": null, "Place": null, "Category": null, "Municipali": null, "Public_Art": null }, "geometry": { "type": "Point", "coordinates": [ -88.9968401, 40.4800859 ] } },
{ "type": "Feature", "properties": { "name": "David Park", "address": "212 N Roosevelt Ave", "city": "City of Bloomington", "Category__": "Studio", "desc": null, "PicURL": null, "LINK": null, "Place": null, "Category": null, "Municipali": null, "Public_Art": null }, "geometry": { "type": "Point", "coordinates": [ -88.9968401, 40.4800859 ] } },
{ "type": "Feature", "properties": { "name": "Ian Crawley", "address": "510 East Washington St", "city": "City of Bloomington", "Category__": "Studio", "desc": null, "PicURL": null, "LINK": null, "Place": null, "Category": null, "Municipali": null, "Public_Art": null }, "geometry": { "type": "Point", "coordinates": [ -88.9878091, 40.4801624 ] } },
{ "type": "Feature", "properties": { "name": "Jeannie Breitweiser", "address": "510 E Washington St", "city": "City of Bloomington", "Category__": "Studio", "desc": null, "PicURL": null, "LINK": null, "Place": null, "Category": null, "Municipali": null, "Public_Art": null }, "geometry": { "type": "Point", "coordinates": [ -88.9878091, 40.4801624 ] } },
{ "type": "Feature", "properties": { "name": "Jeff Kohl", "address": "212 N Roosevelt Ave", "city": "City of Bloomington", "Category__": "Studio", "desc": null, "PicURL": null, "LINK": null, "Place": null, "Category": null, "Municipali": null, "Public_Art": null }, "geometry": { "type": "Point", "coordinates": [ -88.9968401, 40.4800859 ] } },
{ "type": "Feature", "properties": { "name": "Jeff Little", "address": "101 W Monroe St", "city": "City of Bloomington", "Category__": "Studio", "desc": null, "PicURL": null, "LINK": null, "Place": null, "Category": null, "Municipali": null, "Public_Art": null }, "geometry": { "type": "Point", "coordinates": [ -89.0049594, 40.4812151 ] } },
{ "type": "Feature", "properties": { "name": "Joann Goetzinger", "address": "101 W Monroe St", "city": "City of Bloomington", "Category__": "Studio", "desc": null, "PicURL": null, "LINK": null, "Place": null, "Category": null, "Municipali": null, "Public_Art": null }, "geometry": { "type": "Point", "coordinates": [ -89.0049594, 40.4812151 ] } },
{ "type": "Feature", "properties": { "name": "John Cassidy", "address": "510 E Washington St", "city": "City of Bloomington", "Category__": "Studio", "desc": null, "PicURL": null, "LINK": null, "Place": null, "Category": null, "Municipali": null, "Public_Art": null }, "geometry": { "type": "Point", "coordinates": [ -88.9878091, 40.4801624 ] } },
{ "type": "Feature", "properties": { "name": "John Miller", "address": "405 W Washington St", "city": "City of Bloomington", "Category__": "Studio", "desc": null, "PicURL": null, "LINK": null, "Place": null, "Category": null, "Municipali": null, "Public_Art": null }, "geometry": { "type": "Point", "coordinates": [ -88.9968611, 40.4797813 ] } },
{ "type": "Feature", "properties": { "name": "Jonah Ortiz", "address": "212 N Roosevelt Ave", "city": "City of Bloomington", "Category__": "Studio", "desc": null, "PicURL": null, "LINK": null, "Place": null, "Category": null, "Municipali": null, "Public_Art": null }, "geometry": { "type": "Point", "coordinates": [ -88.9968401, 40.4800859 ] } },
{ "type": "Feature", "properties": { "name": "Kelly Carter-Allen", "address": "511 N Main St", "city": "City of Bloomington", "Category__": "Studio", "desc": null, "PicURL": null, "LINK": null, "Place": null, "Category": null, "Municipali": null, "Public_Art": null }, "geometry": { "type": "Point", "coordinates": [ -88.9934563, 40.4827794 ] } },
{ "type": "Feature", "properties": { "name": "Lisa Lofgren", "address": "212 N Roosevelt Ave", "city": "City of Bloomington", "Category__": "Studio", "desc": null, "PicURL": null, "LINK": null, "Place": null, "Category": null, "Municipali": null, "Public_Art": null }, "geometry": { "type": "Point", "coordinates": [ -88.9968401, 40.4800859 ] } },
{ "type": "Feature", "properties": { "name": "Marilyn Johnson", "address": "533 N Main St", "city": "City of Bloomington", "Category__": "Studio", "desc": null, "PicURL": null, "LINK": null, "Place": null, "Category": null, "Municipali": null, "Public_Art": null }, "geometry": { "type": "Point", "coordinates": [ -88.9935465, 40.4835133 ] } },
{ "type": "Feature", "properties": { "name": "Melissa Oresky", "address": "511 N Main St", "city": "City of Bloomington", "Category__": "Studio", "desc": null, "PicURL": null, "LINK": null, "Place": null, "Category": null, "Municipali": null, "Public_Art": null }, "geometry": { "type": "Point", "coordinates": [ -88.9934563, 40.4827794 ] } },
{ "type": "Feature", "properties": { "name": "Michael Dubina", "address": "511 N Main St", "city": "City of Bloomington", "Category__": "Studio", "desc": null, "PicURL": null, "LINK": null, "Place": null, "Category": null, "Municipali": null, "Public_Art": null }, "geometry": { "type": "Point", "coordinates": [ -88.9934563, 40.4827794 ] } },
{ "type": "Feature", "properties": { "name": "Michael James Smedley", "address": "407 W Front St", "city": "City of Bloomington", "Category__": "Studio", "desc": null, "PicURL": null, "LINK": null, "Place": null, "Category": null, "Municipali": null, "Public_Art": null }, "geometry": { "type": "Point", "coordinates": [ -88.9972178, 40.4788395 ] } },
{ "type": "Feature", "properties": { "name": "Michele Peterson", "address": "115 Monroe St", "city": "City of Bloomington", "Category__": "Studio", "desc": null, "PicURL": null, "LINK": null, "Place": null, "Category": null, "Municipali": null, "Public_Art": null }, "geometry": { "type": "Point", "coordinates": [ -88.992995, 40.481069 ] } },
{ "type": "Feature", "properties": { "name": "Rick Harney", "address": "510 E Washington St", "city": "City of Bloomington", "Category__": "Studio", "desc": null, "PicURL": null, "LINK": null, "Place": null, "Category": null, "Municipali": null, "Public_Art": null }, "geometry": { "type": "Point", "coordinates": [ -88.9878091, 40.4801624 ] } },
{ "type": "Feature", "properties": { "name": "Rick Risberg", "address": "101 W Monroe St", "city": "City of Bloomington", "Category__": "Studio", "desc": null, "PicURL": null, "LINK": null, "Place": null, "Category": null, "Municipali": null, "Public_Art": null }, "geometry": { "type": "Point", "coordinates": [ -89.0049594, 40.4812151 ] } },
{ "type": "Feature", "properties": { "name": "Roger Harris", "address": "407 N Main St", "city": "City of Bloomington", "Category__": "Studio", "desc": null, "PicURL": null, "LINK": null, "Place": null, "Category": null, "Municipali": null, "Public_Art": null }, "geometry": { "type": "Point", "coordinates": [ -88.9934142, 40.4816035 ] } },
{ "type": "Feature", "properties": { "name": "Sandra Ogelsby", "address": "212 N Roosevelt Ave", "city": "City of Bloomington", "Category__": "Studio", "desc": null, "PicURL": null, "LINK": null, "Place": null, "Category": null, "Municipali": null, "Public_Art": null }, "geometry": { "type": "Point", "coordinates": [ -88.9968401, 40.4800859 ] } },
{ "type": "Feature", "properties": { "name": "Thursday Gervais", "address": "109 W Front St", "city": "City of Bloomington", "Category__": "Studio", "desc": null, "PicURL": null, "LINK": null, "Place": null, "Category": null, "Municipali": null, "Public_Art": null }, "geometry": { "type": "Point", "coordinates": [ -88.9941754, 40.4789132 ] } },
{ "type": "Feature", "properties": { "name": "Vicki Wilken", "address": "115 S Center St", "city": "City of Bloomington", "Category__": "Studio", "desc": null, "PicURL": null, "LINK": null, "Place": null, "Category": null, "Municipali": null, "Public_Art": null }, "geometry": { "type": "Point", "coordinates": [ -88.9943221, 40.4679738 ] } },
{ "type": "Feature", "properties": { "name": "Starplex Cinemas 14", "address": "201 McKnight St", "city": "Town of Normal", "Category__": "Cinema", "desc": "14 screen movie theater", "PicURL": null, "LINK": null, "Place": null, "Category": null, "Municipali": null, "Public_Art": null }, "geometry": { "type": "Point", "coordinates": [ -88.9901203, 40.5379393 ] } },
{ "type": "Feature", "properties": { "name": "Corn Crib", "address": "1000 W Raab Rd", "city": "Town of Normal", "Category__": "Sports", "desc": "Independent league basball park", "PicURL": null, "LINK": null, "Place": null, "Category": null, "Municipali": null, "Public_Art": null }, "geometry": { "type": "Point", "coordinates": [ -89.0037271, 40.5339323 ] } },
{ "type": "Feature", "properties": { "name": "Faiview Family Aquatic Center", "address": "801 N Main St", "city": "Town of Normal", "Category__": "Recreation", "desc": "water park with baseball field and playground", "PicURL": null, "LINK": null, "Place": null, "Category": null, "Municipali": null, "Public_Art": null }, "geometry": { "type": "Point", "coordinates": [ -88.9966712, 40.5215222 ] } },
{ "type": "Feature", "properties": { "name": "Weibring Golf Club", "address": "800 Gregory St", "city": "Town of Normal", "Category__": "Recreation", "desc": "18 hole golf course near ISU", "PicURL": null, "LINK": null, "Place": null, "Category": null, "Municipali": null, "Public_Art": null }, "geometry": { "type": "Point", "coordinates": [ -89.0044938, 40.5176798 ] } },
{ "type": "Feature", "properties": { "name": "Eyestone School Museum", "address": "108 N. Adelaide St", "city": "Town of Normal", "Category__": "Museum", "desc": "Historic one-room schoolhouse", "PicURL": null, "LINK": null, "Place": null, "Category": null, "Municipali": null, "Public_Art": null }, "geometry": { "type": "Point", "coordinates": [ -89.0011471, 40.5106429 ] } },
{ "type": "Feature", "properties": { "name": "Redbird Arena", "address": "W College Ave", "city": "Town of Normal", "Category__": "Sports", "desc": "10.200 seat multipurpose arena", "PicURL": null, "LINK": null, "Place": null, "Category": null, "Municipali": null, "Public_Art": null }, "geometry": { "type": "Point", "coordinates": [ -88.9988007, 40.5106454 ] } },
{ "type": "Feature", "properties": { "name": "Hancock Stadium", "address": "N Main St", "city": "Town of Normal", "Category__": "Sports", "desc": "13,391 seat multi-purpose stadium", "PicURL": null, "LINK": null, "Place": null, "Category": null, "Municipali": null, "Public_Art": null }, "geometry": { "type": "Point", "coordinates": [ -88.9957756, 40.5123518 ] } },
{ "type": "Feature", "properties": { "name": "ISU Bowling and Billards Center", "address": "W College Ave", "city": "Town of Normal", "Category__": "Recreation", "desc": "bowling alley and billards", "PicURL": null, "LINK": null, "Place": null, "Category": null, "Municipali": null, "Public_Art": null }, "geometry": { "type": "Point", "coordinates": [ -88.9908532, 40.5120577 ] } },
{ "type": "Feature", "properties": { "name": "ISU Center For The Performing Arts", "address": "351 S School St", "city": "Town of Normal", "Category__": "Performing Arts", "desc": "Performing Arts theatre with performances open to the public", "PicURL": null, "LINK": null, "Place": null, "Category": null, "Municipali": null, "Public_Art": null }, "geometry": { "type": "Point", "coordinates": [ -88.9899296, 40.5074432 ] } },
{ "type": "Feature", "properties": { "name": "The Normal Theater", "address": "209 W North St", "city": "Town of Normal", "Category__": "Cinema", "desc": "Restored one screen movie theater", "PicURL": null, "LINK": null, "Place": null, "Category": null, "Municipali": null, "Public_Art": null }, "geometry": { "type": "Point", "coordinates": [ -88.9864427, 40.5093279 ] } },
{ "type": "Feature", "properties": { "name": "University Galleries", "address": "11 Uptown Circle", "city": "Town of Normal", "Category__": "Art Gallery", "desc": "visual arts gallery that showcases ISU student's work", "PicURL": null, "LINK": null, "Place": null, "Category": null, "Municipali": null, "Public_Art": null }, "geometry": { "type": "Point", "coordinates": [ -88.9854403, 40.5083293 ] } },
{ "type": "Feature", "properties": { "name": "Children's Discovery Museum", "address": "101 E Beaufort St", "city": "Town of Normal", "Category__": "Museum", "desc": "three story educational museum for children", "PicURL": null, "LINK": null, "Place": null, "Category": null, "Municipali": null, "Public_Art": null }, "geometry": { "type": "Point", "coordinates": [ -88.9838704, 40.5091247 ] } },
{ "type": "Feature", "properties": { "name": "Connie Link Amphitheatre", "address": "621 S Linden St", "city": "Town of Normal", "Category__": "Performing Arts", "desc": "outdoor amphitheatre on constitution trail", "PicURL": null, "LINK": null, "Place": null, "Category": null, "Municipali": null, "Public_Art": null }, "geometry": { "type": "Point", "coordinates": [ -88.9828722, 40.5025695 ] } },
{ "type": "Feature", "properties": { "name": "Anderson Aquatic Center", "address": "100 S Maple St", "city": "Town of Normal", "Category__": "Recreation", "desc": "13 acre facility with baseball fields and water park", "PicURL": null, "LINK": null, "Place": null, "Category": null, "Municipali": null, "Public_Art": null }, "geometry": { "type": "Point", "coordinates": [ -88.97845, 40.509821 ] } },
{ "type": "Feature", "properties": { "name": "Heartland Theatre Company", "address": "1110 Douglas St", "city": "Town of Normal", "Category__": "Performing Arts", "desc": "Theatre Company that does performances and plays open to the public", "PicURL": null, "LINK": null, "Place": null, "Category": null, "Municipali": null, "Public_Art": null }, "geometry": { "type": "Point", "coordinates": [ -88.9760047, 40.521756 ] } },
{ "type": "Feature", "properties": { "name": "Ryburn Place", "address": "305 Pine St", "city": "Town of Normal", "Category__": "Historical", "desc": "Route 66 Museum with coffee shop, tea room, Garage Theatre and Bed and Breakfast", "PicURL": null, "LINK": null, "Place": null, "Category": null, "Municipali": null, "Public_Art": null }, "geometry": { "type": "Point", "coordinates": [ -88.9806917, 40.5175342 ] } },
{ "type": "Feature", "properties": { "name": "Golf Learning Center of Central Illinois", "address": "1304 Cross Creek Dr", "city": "Town of Normal", "Category__": "Sports", "desc": "Golf training center", "PicURL": null, "LINK": null, "Place": null, "Category": null, "Municipali": null, "Public_Art": null }, "geometry": { "type": "Point", "coordinates": [ -89.0227378, 40.4962229 ] } },
{ "type": "Feature", "properties": { "name": "Ironwood Golf Course", "address": "1901 N Towanda Ave", "city": "Town of Normal", "Category__": "Sports", "desc": "Golf Course associated with Ironwood Country Club", "PicURL": null, "LINK": null, "Place": null, "Category": null, "Municipali": null, "Public_Art": null }, "geometry": { "type": "Point", "coordinates": [ -88.9666174, 40.5408531 ] } },
{ "type": "Feature", "properties": { "name": "Historical Village", "address": null, "city": "Town of Normal", "Category__": "Historical", "desc": "Historical village area with common areas and renovated building with local businesses", "PicURL": null, "LINK": null, "Place": null, "Category": null, "Municipali": null, "Public_Art": null }, "geometry": { "type": "Point", "coordinates": [ -88.9755728, 40.5191948 ] } },
{ "type": "Feature", "properties": { "name": "Ecology Action Center", "address": "202 W College Ave", "city": "Town of Normal", "Category__": "Historical", "desc": "Restored House renovated into a local non-profit organization for park lands", "PicURL": null, "LINK": null, "Place": null, "Category": null, "Municipali": null, "Public_Art": null }, "geometry": { "type": "Point", "coordinates": [ -88.986047, 40.5105781 ] } },
{ "type": "Feature", "properties": { "name": "Uptown Station", "address": "11 Uptown Circle", "city": "Town of Normal", "Category__": "Gallery", "desc": "Uptown Station displays artwork by local artist", "PicURL": null, "LINK": null, "Place": null, "Category": null, "Municipali": null, "Public_Art": null }, "geometry": { "type": "Point", "coordinates": [ -88.9843651, 40.5088655 ] } },
{ "type": "Feature", "properties": { "name": "8 Bit Arcade Bar", "address": "236 E Front St", "city": "City of Bloomington", "Category__": "Recreation", "desc": null, "PicURL": null, "LINK": null, "Place": null, "Category": null, "Municipali": null, "Public_Art": null }, "geometry": { "type": "Point", "coordinates": [ -88.9910229, 40.4789852 ] } },
{ "type": "Feature", "properties": { "name": "Artist Incubator Space", "address": "417 N Main St", "city": "City of Bloomington", "Category__": "Gallery", "desc": null, "PicURL": null, "LINK": null, "Place": null, "Category": null, "Municipali": null, "Public_Art": null }, "geometry": { "type": "Point", "coordinates": [ -88.9934998, 40.4819453 ] } },
{ "type": "Feature", "properties": { "name": null, "address": "102 S Linden Street", "city": null, "Category__": null, "desc": null, "PicURL": null, "LINK": "http:\/\/www.normal.org\/gov\/boards\/hpc\/104SLinden.asp", "Place": "Historical Building Uptown Normal", "Category": "Local Landmark", "Municipali": "Town of Normal", "Public_Art": null }, "geometry": { "type": "Point", "coordinates": [ -88.9819175, 40.5101515 ] } },
{ "type": "Feature", "properties": { "name": null, "address": "1202 S Fell Avenue", "city": null, "Category__": null, "desc": null, "PicURL": null, "LINK": "http:\/\/www.normal.org\/gov\/boards\/hpc\/1202SFell.asp", "Place": "Historical Home", "Category": "Local Landmark", "Municipali": "Town of Normal", "Public_Art": null }, "geometry": { "type": "Point", "coordinates": [ -88.9864434, 40.4980149 ] } },
{ "type": "Feature", "properties": { "name": null, "address": "202 W College Avenue", "city": null, "Category__": null, "desc": null, "PicURL": null, "LINK": "http:\/\/www.normal.org\/gov\/boards\/hpc\/202WCollege.asp", "Place": "Historical Home (Ecology Action Center)", "Category": "Local Landmark", "Municipali": "Town of Normal", "Public_Art": null }, "geometry": { "type": "Point", "coordinates": [ -88.9860768, 40.5105712 ] } },
{ "type": "Feature", "properties": { "name": null, "address": "206 W Lincoln Street", "city": null, "Category__": null, "desc": null, "PicURL": null, "LINK": "http:\/\/www.normal.org\/gov\/boards\/hpc\/206WLincoln.asp", "Place": "Historical Home", "Category": "Local Landmark", "Municipali": "Town of Normal", "Public_Art": null }, "geometry": { "type": "Point", "coordinates": [ -88.9888943, 40.5207751 ] } },
{ "type": "Feature", "properties": { "name": null, "address": "607 N Main Street", "city": null, "Category__": null, "desc": null, "PicURL": null, "LINK": "http:\/\/www.normal.org\/gov\/boards\/hpc\/607NMain.asp", "Place": "The John Gregory House", "Category": "Local Landmark", "Municipali": "Town of Normal", "Public_Art": null }, "geometry": { "type": "Point", "coordinates": [ -88.9955474, 40.5177446 ] } },
{ "type": "Feature", "properties": { "name": null, "address": "705 S Broadway Avenue", "city": null, "Category__": null, "desc": null, "PicURL": null, "LINK": "http:\/\/www.normal.org\/gov\/boards\/hpc\/705SBroadway.asp", "Place": "Historical Home", "Category": "Local Landmark", "Municipali": "Town of Normal", "Public_Art": null }, "geometry": { "type": "Point", "coordinates": [ -88.9860899, 40.5040842 ] } },
{ "type": "Feature", "properties": { "name": null, "address": "905 W Hovey Avenue", "city": null, "Category__": null, "desc": null, "PicURL": null, "LINK": "http:\/\/www.normal.org\/gov\/boards\/hpc\/905WHovey.asp", "Place": "Historical Home", "Category": "Local Landmark", "Municipali": "Town of Normal", "Public_Art": null }, "geometry": { "type": "Point", "coordinates": [ -88.9972173, 40.5021399 ] } },
{ "type": "Feature", "properties": { "name": null, "address": "300 E Willow St", "city": null, "Category__": null, "desc": null, "PicURL": null, "LINK": "http:\/\/www.normal.org\/gov\/boards\/hpc\/FellPark.asp", "Place": "Fell Park", "Category": "Local Landmark", "Municipali": "Town of Normal", "Public_Art": null }, "geometry": { "type": "Point", "coordinates": [ -88.9807447, 40.5145733 ] } },
{ "type": "Feature", "properties": { "name": null, "address": "209 W North St", "city": null, "Category__": null, "desc": null, "PicURL": null, "LINK": "http:\/\/www.normal.org\/gov\/boards\/hpc\/209North.asp", "Place": "Normal Theater", "Category": "Nat'l Register of Historic Places Site", "Municipali": "Town of Normal", "Public_Art": null }, "geometry": { "type": "Point", "coordinates": [ -88.9864509, 40.509201 ] } },
{ "type": "Feature", "properties": { "name": null, "address": "1301 S Fell", "city": null, "Category__": null, "desc": null, "PicURL": "https:\/\/mcplan.org\/image\/991", "LINK": "http:\/\/normal.org\/1066\/1301-S-Fell-Avenue", "Place": "Broadview Mansion", "Category": "Local Landmark", "Municipali": "Town of Normal", "Public_Art": null }, "geometry": { "type": "Point", "coordinates": [ -88.9877019, 40.4965568 ] } },
{ "type": "Feature", "properties": { "name": null, "address": "142-100 E Virginia Ave", "city": null, "Category__": null, "desc": null, "PicURL": null, "LINK": "http:\/\/normal.org\/429\/Camelback-Bridge", "Place": "Camelback Bridge", "Category": "Nat'l Register of Historic Places Site", "Municipali": "Town of Normal", "Public_Art": null }, "geometry": { "type": "Point", "coordinates": [ -88.9834392, 40.4982717 ] } },
{ "type": "Feature", "properties": { "name": null, "address": "S University St", "city": null, "Category__": null, "desc": null, "PicURL": null, "LINK": "http:\/\/normal.org\/680\/Cook-Hall-Illinois-State-University", "Place": "John W. Cook Hall", "Category": "Nat'l Register of Historic Places Site", "Municipali": "Town of Normal", "Public_Art": null }, "geometry": { "type": "Point", "coordinates": [ -88.9921588, 40.5093322 ] } },
{ "type": "Feature", "properties": { "name": null, "address": "802 N Allin St", "city": null, "Category__": null, "desc": null, "PicURL": null, "LINK": null, "Place": "Chicago & Alton Freight depot", "Category": "Nat'l Register of Historic Places Site", "Municipali": "City of Bloomington", "Public_Art": null }, "geometry": { "type": "Point", "coordinates": [ -89.0016758, 40.4725527 ] } },
{ "type": "Feature", "properties": { "name": null, "address": "1000 E Monroe Dr", "city": null, "Category__": null, "desc": null, "PicURL": "https:\/\/mcplan.org\/image\/996", "LINK": null, "Place": "Clover Lawn (aka David Davis Mansion)", "Category": "Nat'l Register of Historic Places Site", "Municipali": "City of Bloomington", "Public_Art": null }, "geometry": { "type": "Point", "coordinates": [ -88.9806811, 40.482854 ] } },
{ "type": "Feature", "properties": { "name": null, "address": "1005 E Jefferson St", "city": null, "Category__": null, "desc": null, "PicURL": null, "LINK": null, "Place": "David Davis III and IV House", "Category": "Nat'l Register of Historic Places Site", "Municipali": "City of Bloomington", "Public_Art": null }, "geometry": { "type": "Point", "coordinates": [ -88.97964, 40.4804228 ] } },
{ "type": "Feature", "properties": { "name": null, "address": "701 E Grove St", "city": null, "Category__": null, "desc": null, "PicURL": null, "LINK": null, "Place": "George H. Cox House", "Category": "Nat'l Register of Historic Places Site", "Municipali": "City of Bloomington", "Public_Art": null }, "geometry": { "type": "Point", "coordinates": [ -88.985565, 40.47774 ] } },
{ "type": "Feature", "properties": { "name": null, "address": "405 W Market St", "city": null, "Category__": null, "desc": null, "PicURL": null, "LINK": null, "Place": "George H. Miller House", "Category": "Nat'l Register of Historic Places Site", "Municipali": "City of Bloomington", "Public_Art": null }, "geometry": { "type": "Point", "coordinates": [ -88.9971149, 40.4824955 ] } },
{ "type": "Feature", "properties": { "name": null, "address": "704 N Main St", "city": null, "Category__": null, "desc": null, "PicURL": null, "LINK": null, "Place": "Holy Trinity Church Rectory and Convent", "Category": "Nat'l Register of Historic Places Site", "Municipali": "City of Bloomington", "Public_Art": null }, "geometry": { "type": "Point", "coordinates": [ -88.9942531, 40.485107 ] } },
{ "type": "Feature", "properties": { "name": null, "address": "502 S Fell St", "city": null, "Category__": null, "desc": null, "PicURL": null, "LINK": null, "Place": "Jesse Fell House [Has been torn down!]", "Category": "Nat'l Register of Historic Places Site", "Municipali": "Town of Normal", "Public_Art": null }, "geometry": null },
{ "type": "Feature", "properties": { "name": null, "address": "502 S Clayton St", "city": null, "Category__": null, "desc": null, "PicURL": null, "LINK": null, "Place": "John M. Hamilton House", "Category": "Nat'l Register of Historic Places Site", "Municipali": "City of Bloomington", "Public_Art": null }, "geometry": { "type": "Point", "coordinates": [ -88.9854049, 40.4753169 ] } },
{ "type": "Feature", "properties": { "name": null, "address": "200 N Main St", "city": null, "Category__": null, "desc": null, "PicURL": null, "LINK": null, "Place": "McLean County Courthouse and Square", "Category": "Nat'l Register of Historic Places Site", "Municipali": "City of Bloomington", "Public_Art": null }, "geometry": { "type": "Point", "coordinates": [ -88.9941443, 40.4799937 ] } },
{ "type": "Feature", "properties": { "name": null, "address": "806 N Evans St", "city": null, "Category__": null, "desc": null, "PicURL": null, "LINK": null, "Place": "Robert Greenlee House", "Category": "Nat'l Register of Historic Places Site", "Municipali": "City of Bloomington", "Public_Art": null }, "geometry": { "type": "Point", "coordinates": [ -88.9875486, 40.4851489 ] } },
{ "type": "Feature", "properties": { "name": null, "address": "510 E Grove St", "city": null, "Category__": null, "desc": null, "PicURL": null, "LINK": null, "Place": "Ruben M. Benjamin House", "Category": "Nat'l Register of Historic Places Site", "Municipali": "City of Bloomington", "Public_Art": null }, "geometry": { "type": "Point", "coordinates": [ -88.9874199, 40.4781553 ] } },
{ "type": "Feature", "properties": { "name": null, "address": "701 E Taylor St", "city": null, "Category__": null, "desc": null, "PicURL": "https:\/\/mcplan.org\/image\/1019", "LINK": null, "Place": "Scott-Vrooman House", "Category": "Nat'l Register of Historic Places Site", "Municipali": "City of Bloomington", "Public_Art": null }, "geometry": { "type": "Point", "coordinates": [ -88.9854111, 40.4759974 ] } },
{ "type": "Feature", "properties": { "name": null, "address": "1316 E Washington St", "city": null, "Category__": null, "desc": null, "PicURL": null, "LINK": null, "Place": "Stevenson House", "Category": "Nat'l Register of Historic Places Site", "Municipali": "City of Bloomington", "Public_Art": null }, "geometry": { "type": "Point", "coordinates": [ -88.9689676, 40.4805048 ] } },
{ "type": "Feature", "properties": { "name": null, "address": "302 E Miller St", "city": null, "Category__": null, "desc": null, "PicURL": null, "LINK": null, "Place": "Evergreen Cemetery", "Category": "Historical Point of Interest", "Municipali": "City of Bloomington", "Public_Art": null }, "geometry": { "type": "Point", "coordinates": [ -88.9900007, 40.4671657 ] } },
{ "type": "Feature", "properties": { "name": null, "address": "1020 S Morris Ave", "city": null, "Category__": null, "desc": null, "PicURL": null, "LINK": null, "Place": "Miller Park War Memorial", "Category": "Historical Point of Interest", "Municipali": "City of Bloomington", "Public_Art": null }, "geometry": { "type": "Point", "coordinates": [ -89.0046739, 40.4676881 ] } },
{ "type": "Feature", "properties": { "name": null, "address": "2929 E Empire St", "city": null, "Category__": null, "desc": null, "PicURL": "https:\/\/mcplan.org\/image\/1017", "LINK": null, "Place": "Prairie Aviation Museum", "Category": "Historical Point of Interest", "Municipali": "City of Bloomington", "Public_Art": null }, "geometry": { "type": "Point", "coordinates": [ -88.9259251, 40.4878123 ] } },
{ "type": "Feature", "properties": { "name": null, "address": "305 Pine St", "city": null, "Category__": null, "desc": null, "PicURL": null, "LINK": null, "Place": "Sprague's Super Service", "Category": "Nat'l Register of Historic Places Site", "Municipali": "Town of Normal", "Public_Art": null }, "geometry": { "type": "Point", "coordinates": [ -88.9806917, 40.5175342 ] } },
{ "type": "Feature", "properties": { "name": null, "address": "103 N Main St", "city": null, "Category__": null, "desc": null, "PicURL": null, "LINK": null, "Place": "Miller-Davis Law Buildng", "Category": "Nat'l Register of Historic Places Site", "Municipali": "City of Bloomington", "Public_Art": null }, "geometry": { "type": "Point", "coordinates": [ -88.9933498, 40.478878 ] } },
{ "type": "Feature", "properties": { "name": null, "address": "1020 S Morris Ave", "city": null, "Category__": null, "desc": null, "PicURL": null, "LINK": null, "Place": "US Army Aircraft C-53-DO-41-20124", "Category": "Nat'l Register of Historic Places Site", "Municipali": "City of Bloomington", "Public_Art": null }, "geometry": { "type": "Point", "coordinates": [ -88.9262659, 40.4878703 ] } },
{ "type": "Feature", "properties": { "name": null, "address": "215-223 Douglas St", "city": null, "Category__": null, "desc": null, "PicURL": null, "LINK": null, "Place": "White Building (AKA Heberling Building)", "Category": "Nat'l Register of Historic Places Site", "Municipali": "City of Bloomington", "Public_Art": null }, "geometry": { "type": "Point", "coordinates": [ -88.9914259, 40.4828239 ] } },
{ "type": "Feature", "properties": { "name": null, "address": "48 Sunset Road", "city": null, "Category__": null, "desc": null, "PicURL": null, "LINK": null, "Place": "Ewing Manor", "Category": "Historical Point of Interest", "Municipali": "City of Bloomington", "Public_Art": null }, "geometry": { "type": "Point", "coordinates": [ -88.9654602, 40.4939913 ] } },
{ "type": "Feature", "properties": { "name": null, "address": "E Washington St", "city": null, "Category__": null, "desc": null, "PicURL": null, "LINK": null, "Place": "Trotter Fountain", "Category": "Historical Point of Interest", "Municipali": "City of Bloomington", "Public_Art": null }, "geometry": { "type": "Point", "coordinates": [ -88.9921147, 40.4798691 ] } },
{ "type": "Feature", "properties": { "name": null, "address": "121 N Main St", "city": null, "Category__": null, "desc": null, "PicURL": null, "LINK": null, "Place": null, "Category": "Mural", "Municipali": "City of Bloomington", "Public_Art": "\"Phoenix\"" }, "geometry": { "type": "Point", "coordinates": [ -88.9933245, 40.4794124 ] } },
{ "type": "Feature", "properties": { "name": null, "address": "517 N Main St", "city": null, "Category__": null, "desc": null, "PicURL": null, "LINK": null, "Place": null, "Category": "Mural", "Municipali": "City of Bloomington", "Public_Art": "Baseball & Football Chicago" }, "geometry": { "type": "Point", "coordinates": [ -88.9934786, 40.4829789 ] } },
{ "type": "Feature", "properties": { "name": null, "address": "626 N Main St", "city": null, "Category__": null, "desc": null, "PicURL": null, "LINK": null, "Place": null, "Category": "Mural", "Municipali": "City of Bloomington", "Public_Art": "Billy the Barber" }, "geometry": { "type": "Point", "coordinates": [ -88.9941482, 40.4843194 ] } },
{ "type": "Feature", "properties": { "name": null, "address": "317 N Center St", "city": null, "Category__": null, "desc": null, "PicURL": null, "LINK": null, "Place": null, "Category": "Mural", "Municipali": "City of Bloomington", "Public_Art": "Corn" }, "geometry": { "type": "Point", "coordinates": [ -88.9944391, 40.481057 ] } },
{ "type": "Feature", "properties": { "name": null, "address": "411 N Center St", "city": null, "Category__": null, "desc": null, "PicURL": null, "LINK": null, "Place": null, "Category": "Mural", "Municipali": "City of Bloomington", "Public_Art": "Corn in the Alley" }, "geometry": { "type": "Point", "coordinates": [ -88.9944193, 40.4817551 ] } },
{ "type": "Feature", "properties": { "name": null, "address": "428 N Main St", "city": null, "Category__": null, "desc": null, "PicURL": null, "LINK": null, "Place": null, "Category": "Mural", "Municipali": "City of Bloomington", "Public_Art": "Entrance Mural" }, "geometry": { "type": "Point", "coordinates": [ -88.9940281, 40.4821862 ] } },
{ "type": "Feature", "properties": { "name": null, "address": "104 W Monroe St", "city": null, "Category__": null, "desc": null, "PicURL": "https:\/\/mcplan.org\/image\/1002", "LINK": null, "Place": null, "Category": "Mural", "Municipali": "City of Bloomington", "Public_Art": "Faces of Local Historical Figures" }, "geometry": { "type": "Point", "coordinates": [ -88.9940749, 40.4811402 ] } },
{ "type": "Feature", "properties": { "name": null, "address": "102 W Market St", "city": null, "Category__": null, "desc": null, "PicURL": null, "LINK": null, "Place": null, "Category": "Mural", "Municipali": "City of Bloomington", "Public_Art": "Girl Scout Mural" }, "geometry": { "type": "Point", "coordinates": [ -88.9940307, 40.4822479 ] } },
{ "type": "Feature", "properties": { "name": null, "address": "531 N Main St", "city": null, "Category__": null, "desc": "Located at Mulligans", "PicURL": null, "LINK": null, "Place": null, "Category": "Mural", "Municipali": "City of Bloomington", "Public_Art": "Golfer in the Courtyard" }, "geometry": { "type": "Point", "coordinates": [ -88.9934825, 40.4834551 ] } },
{ "type": "Feature", "properties": { "name": null, "address": "1500 W Raab Rd", "city": null, "Category__": null, "desc": "Heartland Community College", "PicURL": null, "LINK": null, "Place": null, "Category": "Mural", "Municipali": "City of Bloomington", "Public_Art": "Heartland Art Collection" }, "geometry": { "type": "Point", "coordinates": [ -89.0145809, 40.5355562 ] } },
{ "type": "Feature", "properties": { "name": null, "address": "516 N Main St", "city": null, "Category__": null, "desc": null, "PicURL": "https:\/\/mcplan.org\/image\/1020", "LINK": null, "Place": null, "Category": "Mural", "Municipali": "City of Bloomington", "Public_Art": "Mural of 41 Artists" }, "geometry": { "type": "Point", "coordinates": [ -88.9940571, 40.4829016 ] } },
{ "type": "Feature", "properties": { "name": null, "address": "101 W Monroe St", "city": null, "Category__": null, "desc": null, "PicURL": null, "LINK": null, "Place": null, "Category": "Mural", "Municipali": "City of Bloomington", "Public_Art": "Private Joe" }, "geometry": { "type": "Point", "coordinates": [ -88.9940015, 40.4814868 ] } },
{ "type": "Feature", "properties": { "name": null, "address": "102 W Market St", "city": null, "Category__": null, "desc": null, "PicURL": null, "LINK": null, "Place": null, "Category": "Mural", "Municipali": "City of Bloomington", "Public_Art": "Watermelon Mural" }, "geometry": { "type": "Point", "coordinates": [ -88.9940307, 40.4822479 ] } },
{ "type": "Feature", "properties": { "name": null, "address": "104 W Front St", "city": null, "Category__": null, "desc": null, "PicURL": null, "LINK": null, "Place": null, "Category": "Statue\/Sculpture", "Municipali": "City of Bloomington", "Public_Art": "Abraham Lincoln" }, "geometry": { "type": "Point", "coordinates": [ -88.9940574, 40.4776242 ] } },
{ "type": "Feature", "properties": { "name": null, "address": "200 N Main St", "city": null, "Category__": null, "desc": null, "PicURL": "https:\/\/mcplan.org\/image\/1011", "LINK": null, "Place": null, "Category": "Statue\/Sculpture", "Municipali": "City of Bloomington", "Public_Art": "Abraham Lincoln" }, "geometry": { "type": "Point", "coordinates": [ -88.9941443, 40.4799937 ] } },
{ "type": "Feature", "properties": { "name": null, "address": "601 N East St", "city": null, "Category__": null, "desc": null, "PicURL": null, "LINK": null, "Place": null, "Category": "Statue\/Sculpture", "Municipali": "City of Bloomington", "Public_Art": "Ed McCullogh Sculpture" }, "geometry": { "type": "Point", "coordinates": [ -88.9921647, 40.4838462 ] } },
{ "type": "Feature", "properties": { "name": null, "address": "600 N East St", "city": null, "Category__": null, "desc": null, "PicURL": "https:\/\/mcplan.org\/image\/1013", "LINK": null, "Place": null, "Category": "Statue\/Sculpture", "Municipali": "City of Bloomington", "Public_Art": "Lincoln, Davis, & Fell Sculpture" }, "geometry": { "type": "Point", "coordinates": [ -88.992807, 40.4841211 ] } },
{ "type": "Feature", "properties": { "name": null, "address": "1312 Park St", "city": null, "Category__": null, "desc": "Ames Library - Illinois Wesleyan", "PicURL": null, "LINK": null, "Place": null, "Category": "Statue\/Sculpture", "Municipali": "City of Bloomington", "Public_Art": "Minor Myers Statue" }, "geometry": { "type": "Point", "coordinates": [ -88.9904951, 40.4910111 ] } },
{ "type": "Feature", "properties": { "name": null, "address": "3201 Cira Dr", "city": null, "Category__": null, "desc": "Central Illinois Regional Airport", "PicURL": null, "LINK": null, "Place": null, "Category": "Statue\/Sculpture", "Municipali": "City of Bloomington", "Public_Art": "Painting & Sculpture Collection" }, "geometry": { "type": "Point", "coordinates": [ -88.9139579, 40.4829709 ] } },
{ "type": "Feature", "properties": { "name": null, "address": "411 N Center St", "city": null, "Category__": null, "desc": "Eaton Gallery", "PicURL": "https:\/\/mcplan.org\/image\/1000", "LINK": null, "Place": null, "Category": "Statue\/Sculpture", "Municipali": "City of Bloomington", "Public_Art": "Sculpture - Eaton Gallery" }, "geometry": { "type": "Point", "coordinates": [ -88.9944193, 40.4817551 ] } },
{ "type": "Feature", "properties": { "name": null, "address": "201 E Washington St", "city": null, "Category__": null, "desc": null, "PicURL": null, "LINK": null, "Place": null, "Category": "Statue\/Sculpture", "Municipali": "City of Bloomington", "Public_Art": "Trotter Memorial" }, "geometry": { "type": "Point", "coordinates": [ -88.9921147, 40.4798691 ] } },
{ "type": "Feature", "properties": { "name": null, "address": null, "city": null, "Category__": null, "desc": "Statue on the East side of Mulberry School", "PicURL": null, "LINK": null, "Place": null, "Category": "Statue\/Sculpture", "Municipali": "Town of Normal", "Public_Art": "Saints and Soldiers Statue" }, "geometry": { "type": "Point", "coordinates": [ -88.9760605, 40.5209477 ] } },
{ "type": "Feature", "properties": { "name": null, "address": null, "city": null, "Category__": null, "desc": "Sculture By Nita Sunderland", "PicURL": null, "LINK": null, "Place": null, "Category": "Statue\/Sculpture", "Municipali": "Town of Normal", "Public_Art": "Ruins IV" }, "geometry": { "type": "Point", "coordinates": [ -88.9917711, 40.509429 ] } },
{ "type": "Feature", "properties": { "name": null, "address": null, "city": null, "Category__": null, "desc": "Mural on the SW side of Windy City Wieners", "PicURL": null, "LINK": null, "Place": null, "Category": "Mural", "Municipali": "Town of Normal", "Public_Art": "Perfectly Normal" }, "geometry": { "type": "Point", "coordinates": [ -88.9838529, 40.5095877 ] } },
{ "type": "Feature", "properties": { "name": null, "address": null, "city": null, "Category__": null, "desc": "Mural with vibrant colors and geometric shapes", "PicURL": null, "LINK": null, "Place": null, "Category": "Mural", "Municipali": "Town of Normal", "Public_Art": "Block and Shapes" }, "geometry": { "type": "Point", "coordinates": [ -88.984692, 40.509702 ] } },
{ "type": "Feature", "properties": { "name": null, "address": null, "city": null, "Category__": null, "desc": "Mural honoring vetrerans", "PicURL": null, "LINK": null, "Place": null, "Category": "Mural", "Municipali": "Town of Normal", "Public_Art": "American Legion Mural" }, "geometry": { "type": "Point", "coordinates": [ -88.984983, 40.5097827 ] } },
{ "type": "Feature", "properties": { "name": null, "address": null, "city": null, "Category__": null, "desc": "Mural on the back of Firehouse Pizza", "PicURL": null, "LINK": null, "Place": null, "Category": "Mural", "Municipali": "Town of Normal", "Public_Art": "Firehouse Mural" }, "geometry": { "type": "Point", "coordinates": [ -88.9832929, 40.5093349 ] } },
{ "type": "Feature", "properties": { "name": null, "address": null, "city": null, "Category__": null, "desc": "Mural on the SW side of Emac and Boli's", "PicURL": null, "LINK": null, "Place": null, "Category": "Mural", "Municipali": "Town of Normal", "Public_Art": "Emac and Boli's Mural" }, "geometry": { "type": "Point", "coordinates": [ -88.9836391, 40.5093472 ] } },
{ "type": "Feature", "properties": { "name": null, "address": null, "city": null, "Category__": null, "desc": "War Memorial", "PicURL": null, "LINK": null, "Place": null, "Category": "Memorial", "Municipali": "Town of Normal", "Public_Art": "War Memorial" }, "geometry": { "type": "Point", "coordinates": [ -88.9748372, 40.5148126 ] } },
{ "type": "Feature", "properties": { "name": null, "address": null, "city": null, "Category__": null, "desc": "Memorial in honor of Robert G. Bone", "PicURL": null, "LINK": null, "Place": null, "Category": "Memorial", "Municipali": "Town of Normal", "Public_Art": "Hand Of Friendship" }, "geometry": { "type": "Point", "coordinates": [ -88.9905826, 40.5094156 ] } },
{ "type": "Feature", "properties": { "name": null, "address": null, "city": null, "Category__": null, "desc": "Statue of Will Robinson and Doug Collins", "PicURL": null, "LINK": null, "Place": null, "Category": "Statue\/Sculpture", "Municipali": "Town of Normal", "Public_Art": "Collins - Robinson" }, "geometry": { "type": "Point", "coordinates": [ -88.998795, 40.5113595 ] } },
{ "type": "Feature", "properties": { "name": null, "address": null, "city": null, "Category__": null, "desc": "Steel scultures near the ISU center for visual arts", "PicURL": null, "LINK": null, "Place": null, "Category": "Statue\/Sculpture", "Municipali": "Town of Normal", "Public_Art": "ISU steel sculpture" }, "geometry": { "type": "Point", "coordinates": [ -88.9898095, 40.5064179 ] } },
{ "type": "Feature", "properties": { "name": null, "address": null, "city": null, "Category__": null, "desc": "Armed Services memorial on the ISU quad", "PicURL": null, "LINK": null, "Place": null, "Category": "Memorial", "Municipali": "Town of Normal", "Public_Art": "Armed Services Memorial" }, "geometry": { "type": "Point", "coordinates": [ -88.9913212, 40.5084802 ] } },
{ "type": "Feature", "properties": { "name": null, "address": null, "city": null, "Category__": null, "desc": "Steel statue on the ISU quad", "PicURL": null, "LINK": null, "Place": null, "Category": "Statue\/Sculpture", "Municipali": "Town of Normal", "Public_Art": "Steel statue" }, "geometry": { "type": "Point", "coordinates": [ -88.9919214, 40.5088411 ] } },
{ "type": "Feature", "properties": { "name": null, "address": null, "city": null, "Category__": null, "desc": "Tree mural", "PicURL": null, "LINK": null, "Place": null, "Category": "Mural", "Municipali": "Town of Normal", "Public_Art": "Medici Tree" }, "geometry": { "type": "Point", "coordinates": [ -88.9855499, 40.5098517 ] } },
{ "type": "Feature", "properties": { "name": null, "address": null, "city": null, "Category__": null, "desc": "Metal sculture of musical instuments", "PicURL": null, "LINK": null, "Place": null, "Category": "Statue\/Sculpture", "Municipali": "Town of Normal", "Public_Art": "Musical Sculture" }, "geometry": { "type": "Point", "coordinates": [ -88.9836814, 40.5093571 ] } },
{ "type": "Feature", "properties": { "name": null, "address": null, "city": null, "Category__": null, "desc": "Statue by Shella Oettinger depicting a husband, wife, and children", "PicURL": null, "LINK": null, "Place": null, "Category": "Statue\/Sculpture", "Municipali": "Town of Normal", "Public_Art": "The Normal Family" }, "geometry": { "type": "Point", "coordinates": [ -88.9830957, 40.50754 ] } },
{ "type": "Feature", "properties": { "name": null, "address": null, "city": null, "Category__": null, "desc": "Painted side walk and benches", "PicURL": null, "LINK": null, "Place": null, "Category": "Mural", "Municipali": "Town of Normal", "Public_Art": "Side Walk Art" }, "geometry": { "type": "Point", "coordinates": [ -88.9836591, 40.509312 ] } },
{ "type": "Feature", "properties": { "name": null, "address": null, "city": null, "Category__": null, "desc": "Statue of two children drinking from water fountain", "PicURL": null, "LINK": null, "Place": null, "Category": "Statue\/Sculpture", "Municipali": "Town of Normal", "Public_Art": "Children's Fountain" }, "geometry": { "type": "Point", "coordinates": [ -88.9562747, 40.5063433 ] } },
{ "type": "Feature", "properties": { "name": null, "address": null, "city": null, "Category__": null, "desc": "ISU lights and fountain behind stevenson hall, represents man and nature", "PicURL": null, "LINK": null, "Place": null, "Category": "Statue\/Sculpture", "Municipali": "Town of Normal", "Public_Art": "In Exchange" }, "geometry": { "type": "Point", "coordinates": [ -88.9893871, 40.5088244 ] } },
{ "type": "Feature", "properties": { "name": null, "address": null, "city": null, "Category__": null, "desc": "Silver stick fugure statue by Charlene Bokesh-Parsons", "PicURL": null, "LINK": null, "Place": null, "Category": "Statue\/Sculpture", "Municipali": "Town of Normal", "Public_Art": "Competitive Edge" }, "geometry": { "type": "Point", "coordinates": [ -88.9979027, 40.5115439 ] } },
{ "type": "Feature", "properties": { "name": null, "address": null, "city": null, "Category__": null, "desc": "dedicated to the memory of the seven staff and friends of ISU who perished in an airplane crash", "PicURL": null, "LINK": null, "Place": null, "Category": "Memorial", "Municipali": "Town of Normal", "Public_Art": "Redbird Remembrance" }, "geometry": { "type": "Point", "coordinates": [ -88.9985916, 40.5116078 ] } },
{ "type": "Feature", "properties": { "name": null, "address": null, "city": null, "Category__": null, "desc": "praying mantis constructed out of PVC pipes at the entrance to the ISU horticulture center", "PicURL": null, "LINK": null, "Place": null, "Category": "Statue\/Sculpture", "Municipali": "Town of Normal", "Public_Art": "Praying Mantis Guardian" }, "geometry": { "type": "Point", "coordinates": [ -89.0028216, 40.5317247 ] } },
{ "type": "Feature", "properties": { "name": null, "address": null, "city": null, "Category__": null, "desc": "Mural of Michelangelo's famous hand of god in the sistine chapel", "PicURL": null, "LINK": null, "Place": null, "Category": "Mural", "Municipali": "Town of Normal", "Public_Art": "Encounter" }, "geometry": { "type": "Point", "coordinates": [ -88.990982, 40.5132068 ] } },
{ "type": "Feature", "properties": { "name": null, "address": null, "city": null, "Category__": null, "desc": "With each letter representing a different aspect of the community, \"Bloomington\" was painted", "PicURL": null, "LINK": null, "Place": null, "Category": "Mural", "Municipali": "City of Bloomington", "Public_Art": "Washington Street Trail Underpass Mural" }, "geometry": { "type": "Point", "coordinates": [ -88.9818366, 40.4798174 ] } },
{ "type": "Feature", "properties": { "name": null, "address": null, "city": null, "Category__": null, "desc": "Done by Youth Mural Project and Artolution", "PicURL": null, "LINK": null, "Place": null, "Category": "Mural", "Municipali": "City of Bloomington", "Public_Art": "Market Street Bridge Mural" }, "geometry": { "type": "Point", "coordinates": [ -89.0065844, 40.4821448 ] } },
{ "type": "Feature", "properties": { "name": null, "address": "2025 E Lincoln St", "city": null, "Category__": null, "desc": null, "PicURL": "https:\/\/mcplan.org\/image\/1022", "LINK": null, "Place": null, "Category": "Sculpture", "Municipali": "City of Bloomington", "Public_Art": "She By the Water" }, "geometry": { "type": "Point", "coordinates": [ -88.9624763, 40.4644602 ] } }
]
}
